,City Name,Country,Latitude,Longitude,Temperature (F),Humidity (%),Cloud Cover (%),Wind Speed (mph)
0,Atar,MR,20.52,-13.05,92.34,11,0,9.13
1,Ribeira Grande,PT,38.52,-28.7,64.4,68,40,17.22
2,Wick,GB,58.43,-3.08,48.2,81,3,11.41
3,Kapaa,US,22.08,-159.32,71.44,83,90,14.99
4,Puerto Escondido,MX,15.85,-97.07,80.6,65,5,3.85
5,Ponta do Sol,PT,32.67,-17.1,65.88,60,20,6.93
6,Praia,CV,14.92,-23.51,78.8,50,40,19.46
7,North Bend,US,43.41,-124.22,55.99,100,90,8.05
8,Nuevo Ideal,MX,24.89,-105.07,71.37,10,76,2.8
9,Cockburn Town,TC,21.46,-71.14,79.45,80,2,20.49
10,Safi,MA,32.3,-9.24,65.75,63,15,14.32
11,Sitka,US,57.05,-135.33,44.6,81,90,3.36
12,Iracoubo,GF,5.48,-53.2,83.03,72,7,7.61
13,Tuktoyaktuk,CA,69.45,-133.04,-2.2,77,90,3.36
14,Upernavik,GL,72.79,-56.15,33.8,87,0,4.05
15,Vila Franca do Campo,PT,37.72,-25.43,64.4,77,20,14.99
16,Fairbanks,US,64.84,-147.72,23.68,49,1,10.29
17,Qaanaaq,GL,77.48,-69.36,31.14,89,88,5.44
18,Makaha,US,21.47,-158.22,70.5,88,75,4.7
19,Iqaluit,CA,63.75,-68.51,32.0,93,75,10.29
20,Constitución,CL,-35.33,-72.42,62.13,75,1,13.11
21,Hilo,US,19.73,-155.09,67.57,83,75,6.93
22,Atuona,PF,-9.8,-139.03,81.39,80,30,16.44
23,Provideniya,RU,64.38,-173.3,18.63,89,0,4.59
24,Barrow,US,71.29,-156.79,-2.2,77,1,13.87
25,Grindavik,IS,63.84,-22.43,50.0,57,40,10.29
26,Vestmannaeyjar,IS,63.44,-20.27,46.4,70,43,8.05
27,Husavik,IS,66.04,-17.34,41.0,75,75,18.34
28,Yellowknife,CA,62.46,-114.35,7.09,77,90,13.87
29,Nicolás Bravo,MX,18.45,-88.92,86.0,74,90,5.82
30,Vila do Maio,CV,15.13,-23.22,78.8,50,40,19.46
31,Cascais,PT,38.7,-9.42,63.73,63,20,11.41
32,Nome,US,64.5,-165.41,26.33,68,1,10.29
33,Esim,GH,4.87,-2.24,84.97,72,82,12.53
34,Meadow Lake,US,34.8,-106.54,56.43,34,1,3.36
35,Saint Paul Harbor,US,57.79,-152.41,42.8,87,90,9.17
36,Great Falls,US,47.5,-111.3,50.31,45,1,12.75
37,Monrovia,LR,6.3,-10.8,87.8,66,40,6.93
38,Norman Wells,CA,65.28,-126.83,-0.4,70,20,5.82
39,Half Moon Bay,US,37.46,-122.43,62.51,77,20,10.58
40,Codrington,AU,-38.27,141.97,59.52,82,100,17.58
41,Havre-St-Pierre,CA,50.23,-63.6,35.6,59,1,17.22
42,Lagoa,PT,39.05,-27.98,59.54,79,63,23.71
43,Harker Heights,US,31.08,-97.66,66.2,48,1,14.99
44,Bethel,US,41.37,-73.41,58.87,50,1,2.53
45,Loreto,MX,22.27,-101.97,71.26,10,53,5.28
46,Haines Junction,CA,60.75,-137.51,29.39,77,98,6.06
47,Saint Anthony,US,45.02,-93.22,59.77,58,1,3.13
48,Bubaque,GW,11.28,-15.83,79.43,55,100,8.59
49,Whitehorse,CA,60.72,-135.05,26.22,79,75,13.87
50,Westwego,US,29.91,-90.14,79.9,69,75,6.93
51,Nzérékoré,GN,7.76,-8.82,94.05,34,79,2.71
52,Tasiilaq,GL,65.61,-37.64,42.8,45,40,18.34
53,Americus,US,32.07,-84.23,77.0,57,1,8.05
54,Nantucket,US,41.28,-70.1,53.6,72,1,6.93
55,Guantánamo,CU,20.14,-75.21,86.0,62,20,6.93
56,Thompson,CA,55.74,-97.86,32.0,92,75,3.36
57,Faranah,GN,10.04,-10.74,93.7,35,65,3.65
58,Cabo San Lucas,MX,22.89,-109.91,82.4,24,20,3.36
59,Ilulissat,GL,69.22,-51.1,37.4,64,75,6.93
60,Narsaq,GL,60.92,-46.05,39.2,64,75,11.41
61,Marystown,CA,47.17,-55.15,39.29,85,89,13.94
62,Port-Cartier,CA,50.03,-66.87,37.18,40,20,13.87
63,Price,US,39.6,-110.81,50.0,39,1,1.83
64,Marrakesh,MA,31.63,-8.01,66.2,59,75,9.17
65,Torbay,CA,47.67,-52.73,34.2,96,90,19.46
66,Whitecourt,CA,54.15,-115.69,39.2,55,40,3.36
67,São Filipe,CV,14.9,-24.5,71.11,77,13,18.21
68,High Prairie,CA,55.43,-116.49,44.37,56,41,5.23
69,Kolondiéba,ML,11.09,-6.89,100.96,20,32,7.83
70,Manaure,CO,11.78,-72.44,91.4,49,20,14.99
71,Clyde River,CA,70.47,-68.59,15.8,72,75,9.17
72,Araouane,ML,18.9,-3.53,102.85,11,91,14.67
73,Puerto Ayora,EC,-0.74,-90.35,82.15,74,20,19.46
74,Cayenne,GF,4.93,-52.33,84.2,74,90,6.93
75,Ponta Delgada,PT,37.73,-25.67,64.4,77,20,14.99
76,Petatlán,MX,17.52,-101.27,77.0,78,75,3.36
77,Olafsvik,IS,64.89,-23.71,40.87,77,54,19.6
78,Lethem,GY,3.38,-59.8,88.84,47,93,10.13
79,Newport,GB,51.59,-3.0,64.63,55,20,6.93
80,Mucurapo,TT,10.67,-61.53,88.77,48,40,18.34
81,Ridgecrest,US,35.62,-117.67,73.54,55,1,1.61
82,Itarema,BR,-2.92,-39.92,82.67,78,98,4.27
83,Westport,US,41.14,-73.36,58.37,62,1,6.93
84,San Andrés,CO,12.58,-81.7,87.8,66,75,10.29
85,Manitouwadge,CA,49.12,-85.84,42.8,52,75,11.41
86,Guia,ES,28.14,-15.63,70.77,56,75,24.16
87,Maumelle,US,34.87,-92.4,61.95,68,90,21.92
88,Saint George,US,37.1,-113.58,64.94,38,1,4.7
89,Mattru,SL,7.62,-11.83,91.06,53,93,4.23
90,Truro,GB,50.27,-5.05,55.06,87,92,9.17
91,George Town,MY,5.41,100.34,78.19,94,40,0.87
92,Houma,US,29.6,-90.72,81.05,74,75,11.41
93,Bingerville,CI,5.36,-3.89,86.0,74,40,16.11
94,Nouadhibou,MR,20.93,-17.03,73.4,56,0,18.34
95,Chandler,US,33.31,-111.84,81.54,18,1,6.93
96,Uniontown,US,39.9,-79.72,62.29,41,87,1.99
97,Harper,LR,4.38,-7.72,85.86,69,100,9.82
98,Grand-Santi,GF,4.25,-54.38,89.94,44,11,3.62
99,Dallas,US,32.77,-96.78,66.02,55,75,12.75
100,Corinth,GR,37.94,22.96,66.99,46,39,8.01
101,Sinnamary,GF,5.38,-52.95,81.54,79,23,9.6
102,Kahului,US,20.89,-156.47,69.84,78,75,9.17
103,Athabasca,CA,54.72,-113.29,48.07,48,0,6.4
104,Dingle,PH,11.0,122.67,80.31,81,6,6.6
105,Creel,MX,27.75,-107.63,63.12,13,41,2.75
106,Champerico,GT,14.3,-91.92,84.2,79,40,6.93
107,Puerto del Rosario,ES,28.5,-13.86,73.4,40,40,14.99
108,Hofn,IS,64.25,-15.21,41.23,81,64,19.33
109,Aklavik,CA,68.22,-135.01,-5.8,76,20,3.36
110,Lake City,US,30.19,-82.64,78.42,69,75,8.05
111,Bathsheba,BB,13.22,-59.52,86.0,55,20,23.04
112,Jacmel,HT,18.23,-72.53,89.6,46,20,14.99
113,Sioux Lookout,CA,50.1,-91.92,42.8,45,40,5.82
114,Ottawa,CA,45.41,-75.7,51.93,21,20,3.36
115,Nioro,GM,13.35,-15.75,101.97,14,86,4.63
116,Lavrentiya,RU,65.58,-171.0,18.95,89,0,2.93
117,Progreso,MX,21.28,-89.67,92.34,62,75,6.93
118,Ixtapa,MX,20.7,-105.2,72.91,52,75,2.24
119,Benicia,US,38.05,-122.16,65.17,63,1,4.7
120,Camacha,PT,33.08,-16.33,66.2,59,20,11.41
121,Santa Maria,BR,-29.68,-53.81,83.5,41,73,6.55
122,Macon,US,39.87,-88.97,48.07,93,90,14.99
123,Coshocton,US,40.27,-81.86,60.39,59,1,3.36
124,La Grande,US,45.32,-118.09,46.9,87,90,5.82
125,Pangnirtung,CA,66.15,-65.71,28.4,92,90,3.36
126,Pacific Grove,US,36.62,-121.92,57.24,93,40,6.31
127,Aldergrove,CA,49.06,-122.47,51.78,87,90,6.93
128,Williamsport,US,41.24,-77.0,51.62,66,90,3.53
129,Brae,GB,60.4,-1.35,46.4,70,91,9.17
130,Morgan City,US,29.7,-91.21,78.44,65,1,8.05
131,Muisne,EC,0.6,-80.03,82.4,83,75,8.05
132,Tipp City,US,39.96,-84.17,63.68,63,75,11.41
133,Barra Patuca,HN,15.8,-84.28,82.87,73,46,15.68
134,Mackenzie,CA,55.3,-123.17,33.8,74,90,3.36
135,Harwich,GB,51.94,1.28,53.96,53,42,5.01
136,La Ronge,CA,55.1,-105.28,42.8,81,5,4.7
137,Nanortalik,GL,60.14,-45.24,35.19,86,28,12.01
138,Klaksvík,FO,62.23,-6.59,44.6,81,99,19.46
139,Lahaina,US,20.88,-156.68,68.56,78,75,9.17
140,Kanata,CA,45.32,-75.9,52.25,19,10,1.99
141,Guerrero Negro,MX,27.98,-114.06,69.28,55,0,4.23
142,Eureka,US,40.8,-124.16,55.4,100,90,4.21
143,‘Āhuimanu,US,21.44,-157.84,71.73,69,40,11.41
144,Lompoc,US,34.64,-120.46,57.09,87,1,3.36
145,Hamilton,US,39.18,-84.53,65.28,63,1,8.05
146,Saint-Pierre,RE,-21.34,55.48,74.52,88,20,4.7
147,Ruidoso,US,33.33,-105.67,52.38,43,1,10.29
148,Menomonie,US,44.88,-91.92,57.49,50,1,3.76
149,Tiznit Province,MA,29.58,-9.5,61.0,55,87,15.52
150,Chicacao,GT,14.53,-91.32,76.86,79,40,6.93
151,Miraflores,MX,19.22,-98.81,67.98,45,5,3.04
152,Pierre,US,44.37,-100.35,52.23,66,90,18.34
153,Vestmanna,FO,62.16,-7.17,44.6,81,71,19.46
154,Missouri City,US,29.62,-95.54,75.81,50,20,16.11
155,Geraldton,AU,-28.77,114.6,64.4,82,100,9.17
156,Paamiut,GL,61.99,-49.67,33.67,92,100,8.9
157,kimparana,ML,12.83,-4.92,105.57,10,41,8.14
158,Gallup,US,35.53,-108.74,50.7,23,1,4.34
159,San Quintín,MX,30.48,-115.95,70.47,57,0,4.41
160,Saint-Augustin,CA,51.23,-58.65,33.75,88,0,8.16
161,Malbork,PL,54.04,19.03,52.0,100,1,14.0
162,Qaqortoq,GL,60.72,-46.03,39.2,64,75,11.41
163,Bodmin,GB,50.47,-4.72,57.9,87,77,9.17
164,Mayo,US,38.89,-76.51,57.63,76,40,4.54
165,Pochutla,MX,15.74,-96.47,80.6,65,5,4.74
166,Lázaro Cárdenas,MX,17.96,-102.2,81.79,51,34,2.01
167,Grand-Lahou,CI,5.14,-5.02,85.64,70,97,11.99
168,Eyl,SO,7.98,49.82,85.53,69,85,12.57
169,Krasnosel'kup,RU,65.7,82.47,30.06,95,58,18.77
170,Nanzhang,CN,31.78,111.84,66.79,36,44,6.2
171,Deputatsky,RU,69.3,139.9,12.04,90,16,3.31
172,Cherskiy,RU,68.75,161.3,13.1,96,86,6.15
173,Saskylakh,RU,71.92,114.08,34.56,94,100,5.1
174,Airai,TL,-8.93,125.41,60.04,68,4,3.49
175,Pontian Kecil,MY,1.48,103.39,77.0,94,20,3.58
176,Yar-Sale,RU,66.83,70.83,22.98,96,0,10.56
177,Kholmy,UA,51.87,32.6,59.68,57,100,4.09
178,Mandera,KE,3.94,41.87,91.13,39,56,4.21
179,Andenes,NO,69.31,16.12,37.4,69,100,19.46
180,Chokurdakh,RU,70.63,147.92,17.76,97,67,7.47
181,Assiut,EG,27.18,31.18,80.6,32,0,13.87
182,Sørland,NO,67.67,12.69,38.08,75,62,20.49
183,Sabang,ID,5.89,95.32,83.68,72,99,3.74
184,Umm Kaddadah,SD,13.6,26.69,103.23,5,0,16.06
185,Davila,PH,18.47,120.58,80.6,78,20,2.24
186,Baykit,RU,61.67,96.37,39.43,76,100,7.99
187,Beringovskiy,RU,63.05,179.32,22.89,97,100,5.64
188,Kulhudhuffushi,MV,6.62,73.07,85.82,76,20,9.06
189,Vardø,NO,70.37,31.11,33.71,90,100,29.01
190,Kholm,RU,59.27,32.85,40.46,63,99,6.76
191,Uşak Province,TR,38.5,29.42,69.01,40,0,14.0
192,Butaritari,KI,3.07,172.79,80.47,86,100,18.7
193,Hede,CN,33.77,120.25,51.15,75,12,10.67
194,Aswān,EG,24.09,32.91,90.66,13,0,18.23
195,Turbat,PK,26.0,63.04,93.94,23,13,8.55
196,Udachny,RU,66.42,112.4,41.0,60,90,11.18
197,Pechenga,RU,69.53,31.17,32.0,96,100,29.97
198,Longyearbyen,SJ,78.22,15.64,23.0,53,0,2.24
199,Khatanga,RU,71.97,102.5,19.69,96,100,8.81
200,Banda Aceh,ID,5.56,95.32,80.73,79,98,1.88
201,Ugoofaaru,MV,5.67,73.0,85.69,72,36,6.24
202,Nālūt,LY,30.33,10.85,92.23,12,85,10.71
203,Freiberg,DE,50.92,13.37,53.82,69,80,8.95
204,Yakeshi,CN,49.28,120.73,35.04,59,81,4.61
205,Constantine,DZ,36.37,6.61,68.0,56,75,2.24
206,Dikson,RU,73.51,80.55,19.4,98,99,9.46
207,Nemuro,JP,43.32,145.57,42.49,91,100,12.5
208,Svobodnyy,RU,51.4,128.13,34.07,81,100,6.98
209,Leningradskiy,RU,69.38,178.42,17.19,88,99,7.14
210,Rognan,NO,67.1,15.39,41.34,60,75,17.22
211,Bereda,ES,43.27,-7.54,61.25,81,98,5.01
212,Magdagachi,RU,53.45,125.8,32.65,75,47,4.79
213,Krasnoarmeysk,RU,51.02,45.7,55.67,59,100,13.44
214,Motygino,RU,58.18,94.76,51.89,63,100,8.12
215,Verkhnevilyuysk,RU,63.45,120.32,34.54,86,48,6.11
216,Sur,OM,22.57,59.53,86.88,40,0,2.08
217,Dzhubga,RU,44.32,38.7,59.86,58,22,2.46
218,Trat,TH,12.5,102.5,79.57,85,66,1.63
219,Zlobin,HR,45.29,14.65,68.0,45,20,6.93
220,Malakal,SS,9.53,31.66,106.54,10,18,1.3
221,Sosnovo,RU,60.55,30.21,40.5,65,100,15.01
222,Nizwá,OM,22.93,57.53,92.64,9,0,5.23
223,Tiksi,RU,71.69,128.87,32.72,92,100,15.01
224,Porvoo,FI,60.39,25.67,43.97,61,20,18.34
225,Chai Badan,TH,15.2,101.13,82.0,35,50,6.89
226,Tosya,TR,41.02,34.04,58.33,24,25,9.64
227,Genhe,CN,50.78,121.52,31.3,63,4,3.49
228,Cam Ranh,VN,11.92,109.16,84.2,83,40,14.99
229,Severo-Yeniseyskiy,RU,60.37,93.04,40.42,65,100,6.87
230,Kiryat Gat,IL,31.61,34.76,61.59,59,40,14.99
231,Lorengau,PG,-2.02,147.27,83.59,70,86,2.42
232,Wanning,CN,18.8,110.4,72.97,88,88,8.75
233,Karla,EE,59.37,24.93,42.28,56,6,19.46
234,Kandi,BJ,11.13,2.94,107.35,17,8,2.86
235,Pulandian,CN,39.4,121.97,48.02,49,18,4.47
236,Sozopol,BG,42.42,27.7,60.19,39,0,19.46
237,Naze,JP,28.37,129.48,57.2,82,75,3.36
238,Indi,IN,17.17,75.97,93.67,15,34,6.93
239,Ostrovnoy,RU,68.05,39.51,32.27,95,100,12.97
240,Yerbogachën,RU,61.28,108.01,47.1,84,90,10.27
241,Mahon,ES,39.89,4.27,64.4,77,40,10.29
242,Edd,ER,13.93,41.69,93.78,45,9,15.23
243,Poggibonsi,IT,43.47,11.15,68.9,41,28,11.01
244,Tromsø,NO,69.65,18.96,32.0,91,90,8.05
245,Krynychky,UA,48.38,34.47,62.6,29,27,17.9
246,Sémbé,CG,1.65,14.58,92.8,39,77,0.4
247,Bandarbeyla,SO,9.49,50.81,85.03,68,55,10.38
248,Kavieng,PG,-2.57,150.8,84.13,76,97,11.86
249,Pandan,PH,14.05,124.17,82.38,80,1,14.54
250,Aktash,RU,50.3,87.73,37.67,26,60,7.38
251,Aksu,CN,41.12,80.26,71.15,17,10,5.82
252,Katsuura,JP,35.13,140.3,60.13,55,20,17.22
253,Birin,NP,26.89,88.07,58.59,53,99,4.07
254,Arlit,NE,18.74,7.39,109.62,5,91,6.44
255,Ndélé,CF,8.41,20.65,102.18,11,13,4.92
256,Aloleng,PH,16.13,119.78,82.63,81,50,5.37
257,Vinh,VN,18.67,105.67,69.66,84,100,4.74
258,Iskateley,RU,67.68,53.15,31.08,96,100,13.62
259,Harlingen,US,26.19,-97.7,83.86,70,90,19.46
260,Nikolskoye,RU,59.7,30.79,41.0,41,74,15.66
261,Severo-Kuril'sk,RU,50.68,156.12,31.03,94,67,12.91
262,Yenotayevka,RU,47.25,47.03,58.19,42,0,17.49
263,Solnechnyy,RU,50.72,136.63,27.7,95,89,7.16
264,Marsá Maţrūḩ,EG,31.35,27.25,64.4,68,40,18.34
265,Arrondissement de Provins,FR,48.58,3.17,66.06,39,0,8.05
266,Dubno,UA,50.42,25.73,59.0,38,40,13.42
267,Bantou,CN,26.22,117.49,63.16,59,98,1.05
268,Cornereva,RO,45.07,22.42,58.87,53,45,13.78
269,Mnogovershinnyy,RU,53.94,139.92,22.42,96,100,4.74
270,Anadyr,RU,64.75,177.48,17.26,92,90,11.18
271,Dzerzhinskoye,RU,56.83,95.23,58.95,58,100,11.14
272,Neftekamsk,RU,56.09,54.27,45.07,83,100,8.5
273,Sümeg,HU,46.98,17.28,65.34,32,42,14.99
274,Nichinan,JP,31.6,131.37,50.0,71,92,4.0
275,Tuy Hoa,VN,13.08,109.3,79.16,85,75,10.22
276,Marzuq,YE,14.4,46.47,83.52,26,7,11.7
277,Pekan,MY,3.48,103.4,78.4,94,40,1.12
278,Dzhebariki-Khaya,RU,62.22,135.8,22.71,95,0,1.05
279,Tazovsky,RU,67.47,78.7,27.63,99,100,7.81
280,Røros,NO,62.57,11.38,37.4,86,90,20.8
281,Kavaratti,IN,10.57,72.64,85.46,72,38,11.36
282,Ji’an,CN,27.12,114.98,67.3,55,100,2.95
283,Wajir,KE,1.75,40.06,83.53,58,100,7.58
284,Kamenka,RU,51.32,42.77,56.5,64,100,12.95
285,Chul'man,RU,56.85,124.91,25.21,86,19,3.22
286,Morón,AR,-34.65,-58.62,64.17,93,90,17.22
287,Talnakh,RU,69.49,88.4,30.2,74,100,26.84
288,Arrondissement de Bergerac,FR,44.83,0.5,63.12,77,28,8.05
289,Wichian Buri,TH,15.66,101.11,82.54,61,17,4.97
290,Myitkyina,MM,25.38,97.4,67.32,86,75,2.37
291,Rodna,RO,47.42,24.82,50.0,68,90,1.99
292,Florø,NO,61.6,5.03,50.0,66,13,19.46
293,Nuoro,IT,40.32,9.33,61.12,68,40,6.93
294,Marfino,RU,55.7,37.38,44.1,70,91,6.71
295,Bogovarovo,RU,58.98,47.02,38.71,71,46,5.5
296,Hobyo,SO,5.35,48.53,84.4,72,91,14.67
297,Bilibino,RU,68.05,166.44,19.36,93,90,1.12
298,Hasaki,JP,35.73,140.83,54.07,62,20,9.17
299,Appingedam,NL,53.32,6.86,54.3,62,75,9.17
300,Sibu,MY,2.3,111.82,78.31,94,75,0.74
301,Petropavlovsk-Kamchatskiy,RU,53.05,158.65,35.6,59,97,11.18
302,Gijang,KR,35.24,129.21,57.2,71,20,6.93
303,Nyaunglebin,MM,17.95,96.73,85.26,45,56,3.98
304,Najrān,SA,17.49,44.13,91.4,26,40,9.17
305,Sistranda,NO,63.73,8.83,42.8,87,75,16.11
306,Kachug,RU,53.96,105.88,53.53,60,100,1.72
307,Hefei,CN,31.86,117.28,68.92,43,100,6.71
308,Shimoda,JP,34.67,138.95,54.91,71,0,1.01
309,Ormara,PK,25.21,64.64,82.4,64,0,11.63
310,Torit,SS,4.41,32.57,89.8,38,33,3.47
311,Galle,LK,6.04,80.22,83.34,80,100,7.14
312,Aksarka,RU,66.56,67.8,22.59,95,4,8.55
313,Hong Kong,HK,22.29,114.16,70.11,68,40,3.36
314,Āsosa,ET,10.07,34.53,89.67,12,32,5.75
315,Gazli,UZ,40.13,63.45,75.16,33,100,11.45
316,Adrar,MR,20.5,-10.07,87.6,14,0,9.26
317,Ust-Kuyga,RU,70.02,135.6,23.99,94,20,10.18
318,Chalon-sur-Saône,FR,46.78,4.85,70.84,38,49,5.82
319,Lisala,CD,2.15,21.52,89.69,45,74,3.22
320,Vanavara,RU,60.34,102.28,55.22,70,100,9.44
321,Altay,CN,47.87,88.12,60.03,18,0,8.57
322,Alekseyevsk,RU,57.84,108.35,44.96,73,73,4.72
323,Kargil,IN,34.57,76.1,38.12,17,91,5.88
324,Worpswede,DE,53.22,8.93,60.33,44,24,11.41
325,Makat,KZ,47.65,53.35,60.17,31,27,10.56
326,Kirensk,RU,57.79,108.11,45.23,72,72,4.9
327,Amga,RU,60.9,131.96,26.24,95,5,1.9
328,Jadu,LY,31.95,12.03,83.37,14,99,13.76
329,Korla,CN,41.76,86.15,68.85,16,0,3.4
330,Nola,IT,40.92,14.53,64.74,68,20,10.29
331,Ulaanbaatar,MN,47.91,106.88,37.4,37,40,3.62
332,Todireşti,RO,47.32,26.83,64.56,52,88,12.37
333,Caramay,PH,10.18,119.24,82.72,78,7,8.52
334,Troitskoye,RU,52.98,84.68,49.48,74,100,7.96
335,Kamaishi,JP,39.27,141.88,47.07,77,0,13.58
336,Hargeisa,SO,9.56,44.06,77.99,44,99,9.64
337,Kyaikkami,MM,16.08,97.57,84.76,73,24,12.66
338,Rach Gia,VN,10.02,105.08,84.2,83,20,3.36
339,Fengzhen,CN,40.44,113.15,42.13,32,25,3.09
340,Kāmāreddi,IN,18.32,78.35,88.65,18,40,3.42
341,Kumul,CN,42.8,93.45,67.68,10,0,6.46
342,Landeck,AT,47.13,10.56,53.6,46,40,5.82
343,Dumai,ID,1.68,101.45,78.04,87,91,3.31
344,Semey,KZ,50.41,80.23,47.68,67,100,10.13
345,Łańcut,PL,50.07,22.23,48.52,71,20,18.34
346,Phan Thiet,VN,10.93,108.1,80.46,74,78,11.61
347,Roald,NO,62.58,6.13,45.45,75,67,8.05
348,Evensk,RU,61.95,159.23,24.78,89,57,7.16
349,Aldan,RU,58.6,125.39,28.17,81,10,1.77
350,Dawlatabad,AF,36.41,64.91,75.54,36,21,6.49
351,Pevek,RU,69.7,170.31,21.65,97,100,6.17
352,Marabu,MY,4.41,114.01,78.4,94,75,2.24
353,Kyren,RU,51.68,102.14,58.6,34,100,3.89
354,Opochka,RU,56.71,28.66,44.94,53,75,10.04
355,Manali,IN,13.17,80.27,87.37,79,40,8.05
356,Mitzic,GA,0.78,11.55,82.02,65,65,2.35
357,Yangi Marg`ilon,UZ,40.43,71.72,68.0,56,100,4.7
358,Bobon,PH,12.52,124.56,78.42,86,9,8.14
359,Bereket,TM,39.24,55.52,71.26,47,15,16.58
360,Srednekolymsk,RU,67.45,153.68,25.36,97,100,1.95
361,Phitsanulok,TH,16.92,100.5,80.65,61,0,5.17
362,Turukhansk,RU,65.82,87.98,32.65,90,82,17.47
363,Xichang,CN,27.9,102.26,52.27,42,100,1.81
364,Boden,SE,65.83,21.69,42.8,48,77,14.99
365,Kormilovka,RU,55.0,74.1,46.4,28,0,6.71
366,Verāval,IN,20.9,70.37,80.22,86,0,9.48
367,Tezu,IN,27.92,96.17,67.5,67,67,3.22
368,Sarāhan,IN,31.52,77.8,50.61,31,74,3.15
369,Rebrikha,RU,53.07,82.34,47.35,71,100,1.41
370,Rafrāf,TN,37.19,10.18,72.5,73,20,9.17
371,Edéa,CM,3.8,10.13,89.6,70,40,6.93
372,Itoman,JP,26.12,127.67,68.0,72,100,6.93
373,Kaset Sombun,TH,16.28,101.95,78.42,65,3,1.81
374,Pemangkat,ID,1.17,108.97,79.77,82,100,4.79
375,Laas,IT,46.62,10.7,53.6,37,40,5.82
376,Mahibadhoo,MV,3.78,72.97,85.08,68,11,5.93
377,NEDJO,ET,9.5,35.5,81.07,12,17,5.37
378,Malkara,TR,40.89,26.9,59.59,44,0,7.31
379,Khani,GE,41.96,42.96,53.6,76,75,9.17
380,Nurobod,UZ,40.91,69.8,69.8,68,94,6.93
381,Tarakan,ID,3.3,117.63,82.65,74,98,2.48
382,Vostok,RU,46.49,135.88,26.24,86,100,1.05
383,Hadejia,NG,12.45,10.04,107.06,7,33,7.78
384,Issa,RU,53.87,44.86,53.19,63,100,10.56
385,Ulagan,RU,50.63,87.96,51.67,26,70,6.38
386,Oddur,SO,4.12,43.89,86.22,46,77,8.99
387,Port Blair,IN,11.67,92.75,85.48,77,15,9.26
388,Fara in Sabina,IT,42.21,12.73,67.87,52,3,10.29
389,Salalah,OM,17.02,54.09,86.0,79,0,11.41
390,Arkadak,RU,51.93,43.5,56.1,64,100,13.04
391,Ayan,RU,56.45,138.17,26.37,96,94,1.5
392,Baharly,TM,38.44,57.43,73.29,46,20,12.91
393,Zabaykal'sk,RU,49.63,117.32,41.27,44,36,5.35
394,Libenge,CD,3.65,18.63,97.07,33,1,5.46
395,Pa Sang,TH,18.53,98.94,70.23,83,40,3.36
396,Misratah,LY,32.38,15.09,68.83,62,17,15.95
397,Koutsouras,GR,35.03,25.95,69.01,32,0,10.0
398,Jalu,LY,29.03,21.55,82.87,19,26,12.64
399,Yaroslavskaya,RU,44.61,40.46,58.98,49,13,6.55
400,Berdigestyakh,RU,62.1,126.7,26.06,95,0,2.37
401,Valkeala,FI,60.94,26.8,42.4,35,98,9.17
402,Kandalaksha,RU,67.16,32.41,34.29,85,100,15.79
403,Tura,IN,25.52,90.22,70.11,73,12,2.51
404,Vikevåg,NO,59.1,5.7,49.69,61,20,11.41
405,Pandaria,IN,22.23,81.42,87.12,22,24,1.14
406,Leshukonskoye,RU,64.9,45.76,33.22,89,100,9.37
407,Revda,RU,56.8,59.93,46.4,81,40,20.13
408,Blagoyevo,RU,63.37,47.92,34.7,82,98,4.25
409,Lienz,AT,46.83,12.77,60.8,31,40,1.92
410,Sarangani,PH,5.4,125.46,84.15,78,100,22.28
411,Bobov Dol,BG,42.37,23.02,60.08,37,2,12.75
412,Vaini,TO,-21.2,-175.2,75.2,94,75,6.93
413,Punta Arenas,CL,-53.15,-70.92,39.0,64,51,11.99
414,Saldanha,ZA,-33.01,17.94,73.4,43,0,8.05
415,Rikitea,PF,-23.12,-134.97,75.69,79,3,12.86
416,Jamestown,US,42.1,-79.24,50.0,57,1,5.82
417,Hermanus,ZA,-34.42,19.23,78.01,45,0,3.0
418,Ushuaia,AR,-54.8,-68.3,41.0,52,40,4.7
419,Villa María,AR,-32.41,-63.24,67.95,78,98,10.56
420,Cape Town,ZA,-33.93,18.42,72.28,60,0,11.41
421,Mar del Plata,AR,-38.0,-57.56,63.01,93,75,10.29
422,Castro,BR,-24.79,-50.01,76.71,38,20,5.06
423,El Salvador,SV,13.83,-88.92,86.9,52,12,3.36
424,Pontes e Lacerda,BR,-15.23,-59.34,86.54,59,3,4.14
425,Antofagasta,CL,-23.65,-70.4,72.23,47,52,9.71
426,Palora,EC,-1.7,-77.93,80.6,61,90,6.93
427,Avarua,CK,-21.21,-159.78,73.4,94,14,3.36
428,George Town,MY,5.41,100.34,78.19,94,40,0.87
429,San Patricio,MX,19.22,-104.7,77.0,78,40,3.42
430,Cidreira,BR,-30.18,-50.21,75.9,53,17,2.66
431,Humaitá,BR,-7.51,-63.02,84.31,73,98,4.14
432,Presidencia Roque Sáenz Peña,AR,-26.79,-60.44,91.74,35,0,11.9
433,Lebu,CL,-37.62,-73.65,58.37,83,100,16.8
434,Departamento de Maldonado,UY,-34.67,-54.92,68.58,88,75,11.41
435,Mataura,NZ,-46.19,168.86,48.0,74,83,5.99
436,Rocha,UY,-34.48,-54.33,73.81,63,100,7.23
437,Pisco,PE,-13.7,-76.22,73.65,78,0,6.93
438,Pangai,TO,-19.8,-174.35,79.59,71,64,2.19
439,Arraial do Cabo,BR,-22.97,-42.03,80.6,65,20,16.11
440,Faanui,PF,-16.48,-151.75,81.37,72,6,7.65
441,Necochea,AR,-38.55,-58.74,64.0,74,100,11.01
442,Atuona,PF,-9.8,-139.03,81.39,80,30,16.44
443,Puerto Ayora,EC,-0.74,-90.35,82.15,74,20,19.46
444,Natal,BR,-5.79,-35.21,83.34,70,75,11.41
445,La Santisima Trinidad,BO,-14.83,-64.9,87.8,70,40,11.41
446,Abapó,BO,-18.83,-63.47,89.89,34,61,4.38
447,Fare,PF,-16.7,-151.02,82.33,70,20,5.53
448,Rawson,AR,-43.3,-65.1,55.29,76,100,17.87
449,Laguna,US,38.42,-121.42,66.6,68,1,4.36
450,Quiindy,PY,-25.97,-57.27,89.2,45,0,11.21
451,Coyhaique,CL,-45.58,-72.07,46.15,72,100,4.27
452,La Maná,EC,-0.93,-79.22,55.4,82,75,10.29
453,Indiaroba,BR,-11.52,-37.51,79.72,88,64,8.9
454,Ariquemes,BR,-9.91,-63.04,83.62,82,61,3.51
455,Chui,UY,-33.7,-53.46,75.22,56,100,5.97
456,Camaná,PE,-16.62,-72.71,73.04,59,1,8.66
457,Alta Floresta,BR,-9.88,-56.09,84.2,74,75,2.24
458,Santiago del Estero,AR,-27.8,-64.26,79.12,49,84,5.17
459,Talcahuano,CL,-36.72,-73.12,59.72,82,100,16.75
460,Touros,BR,-5.2,-35.46,82.4,78,75,6.93
461,Contamana,PE,-7.33,-75.02,91.4,49,39,2.3
462,Virú,PE,-8.42,-78.75,69.8,83,34,12.75
463,Paita,PE,-5.09,-81.11,82.4,54,17,17.22
464,Ancud,CL,-41.87,-73.82,60.01,87,83,4.0
465,Itaituba,BR,-4.28,-55.98,87.8,66,40,9.17
466,Gualeguaychú,AR,-33.01,-58.52,86.0,50,95,4.0
467,Río Gallegos,AR,-51.62,-69.22,46.4,61,40,11.41
468,Copiapó,CL,-27.37,-70.33,77.88,21,15,5.73
469,Reyes,BO,-14.32,-67.38,88.65,53,81,3.8
470,Icatu,BR,-2.78,-44.07,82.4,83,40,4.7
471,San Jose,US,37.34,-121.89,65.8,72,40,0.69
472,São João da Barra,BR,-21.64,-41.05,82.4,58,75,9.17
473,San Luis,AR,-33.3,-66.34,65.07,61,70,9.04
474,Chimbarongo,CL,-34.7,-71.05,66.76,52,12,3.65
475,Cabedelo,BR,-6.98,-34.83,87.8,58,40,12.75
476,Viedma,AR,-40.81,-63.0,68.18,41,34,4.05
477,Barra do Bugres,BR,-15.07,-57.18,83.35,69,54,6.11
478,Vila Velha,BR,-20.33,-40.29,78.28,74,75,12.75
479,Urucará,BR,-2.54,-57.76,81.59,77,98,1.72
480,Boa Esperança do Sul,BR,-21.99,-48.39,81.16,49,0,5.82
481,Hualmay,PE,-11.1,-77.61,74.39,63,4,7.4
482,Lábrea,BR,-7.26,-64.8,86.11,70,98,2.98
483,Iquique,CL,-20.22,-70.14,76.82,37,0,7.18
484,Tocopilla,CL,-22.09,-70.2,82.4,22,28,8.84
485,Manicoré,BR,-5.81,-61.3,84.2,74,99,2.24
486,San Cristobal,VE,7.77,-72.22,82.4,78,40,8.05
487,Sechura,PE,-5.56,-80.82,73.78,67,4,9.86
488,Alofi,NU,-19.06,-169.92,71.6,100,100,8.88
489,Harper,LR,4.38,-7.72,85.86,69,100,9.82
490,Coquimbo,CL,-29.95,-71.34,65.43,61,29,4.65
491,Archidona,ES,37.1,-4.39,61.27,83,100,3.0
492,Cacoal,BR,-11.44,-61.45,84.18,69,3,4.18
493,Las Lomas,PA,8.43,-82.4,79.43,78,20,4.7
494,Formosa,AR,-26.18,-58.18,93.2,38,0,17.22
495,Luján,AR,-34.57,-59.1,63.34,76,100,5.99
496,Yacuiba,BO,-22.04,-63.68,87.46,43,1,2.26
497,Santarém,BR,-2.44,-54.71,82.4,83,40,9.17
498,La Rioja,AR,-29.41,-66.85,77.99,36,5,5.84
499,Guaratinga,BR,-16.57,-39.57,82.4,65,40,6.93
500,Mineiros,BR,-17.57,-52.55,80.73,55,0,9.53
501,Paso de Carrasco,UY,-34.86,-56.05,65.73,88,90,20.8
502,Salta,AR,-24.79,-65.41,80.6,57,20,4.07
503,Rio Grande,BR,-32.03,-52.1,89.67,27,100,8.05
504,Tiarei,PF,-17.53,-149.33,77.0,78,20,1.12
505,Barbalha,BR,-7.31,-39.3,84.2,62,75,9.17
506,Boyuibe,BO,-20.42,-63.28,77.0,54,100,6.46
507,Coruripe,BR,-10.13,-36.18,84.22,66,24,12.46
508,Burnie,AU,-41.07,145.92,55.49,94,100,5.01
509,Albany,US,42.6,-73.97,57.79,20,20,6.93
510,Ahipara,NZ,-35.17,173.17,60.67,83,5,9.17
511,Solwezi,ZM,-12.17,26.39,71.51,48,70,1.32
512,Lüderitz,NA,-26.65,15.16,64.4,72,0,6.93
513,Tairua,NZ,-37.02,175.85,57.36,82,5,11.32
514,Bluff,NZ,-46.6,168.33,48.0,74,79,5.99
515,Poso,ID,-1.4,120.75,79.83,71,100,3.27
516,Kaitangata,NZ,-46.28,169.85,48.99,74,73,1.01
517,Mayumba,GA,-3.43,10.66,75.06,88,100,2.73
518,East London,ZA,-33.02,27.91,69.73,66,52,12.93
519,Gamba,GA,-2.65,10.0,77.31,84,100,7.14
520,New Norfolk,AU,-42.78,147.06,57.09,70,100,1.99
521,Port Alfred,ZA,-33.59,26.89,64.0,92,8,3.0
522,Mahébourg,MU,-20.41,57.7,77.0,94,75,2.17
523,Busselton,AU,-33.65,115.33,53.89,63,0,8.88
524,Hobart,AU,-42.88,147.33,57.92,71,100,6.93
525,Geraldton,AU,-28.77,114.6,64.4,82,100,9.17
526,Hong Kong,HK,22.29,114.16,70.11,68,40,3.36
527,Karratha,AU,-20.74,116.85,88.18,44,34,11.43
528,Omboué,GA,-1.57,9.26,79.54,86,100,11.72
529,Bengkulu,ID,-3.8,102.27,79.68,80,100,2.64
530,Buala,SB,-8.14,159.59,82.2,77,43,5.26
531,Alice Springs,AU,-23.7,133.88,68.0,16,0,5.82
532,Kaeo,NZ,-35.1,173.78,53.49,92,7,4.0
533,Saint-Philippe,RE,-21.36,55.77,74.14,83,8,3.36
534,Katobu,ID,-4.94,122.53,76.39,89,100,5.26
535,Hermanus,ZA,-34.42,19.23,78.01,45,0,3.0
536,Vao,NC,-22.67,167.48,73.26,66,100,15.39
537,Kimbe,PG,-5.55,150.14,76.55,87,39,2.55
538,Carnarvon,AU,-24.87,113.63,77.52,61,97,15.19
539,Cap Malheureux,MU,-19.98,57.61,77.0,87,0,3.0
540,Atambua,ID,-9.11,124.89,74.16,79,18,7.07
541,Mareeba,AU,-17.0,145.43,71.76,73,40,9.17
542,Bredasdorp,ZA,-34.53,20.04,66.2,68,3,14.99
543,Cape Town,ZA,-33.93,18.42,72.28,60,0,11.41
544,Kruisfontein,ZA,-34.0,24.73,65.41,57,34,7.76
545,Yulara,AU,-25.24,130.99,86.0,28,75,19.46
546,Asău,RO,46.43,26.4,64.0,32,94,15.3
547,Port Elizabeth,ZA,-33.92,25.57,68.0,72,10,10.29
548,Tolaga Bay,NZ,-38.37,178.3,57.25,70,0,5.46
549,Padang,ID,-0.95,100.35,79.59,78,100,1.45
550,Kongwa,TZ,-6.2,36.42,71.33,65,92,5.28
551,Plettenberg Bay,ZA,-34.05,23.37,66.33,69,5,12.93
552,Kismayo,SO,-0.36,42.55,83.07,74,83,10.45
553,Waitati,NZ,-45.75,170.57,49.51,71,5,3.0
554,Wanaka,NZ,-44.7,169.15,40.51,61,50,5.75
555,Quelimane,MZ,-17.88,36.89,76.24,80,8,4.97
556,Karasburg,NA,-28.02,18.75,78.48,18,28,3.47
557,Kuito,AO,-12.38,16.93,77.0,41,40,11.41
558,Lata,PT,40.16,-8.33,63.68,75,99,5.01
559,Te Anau,NZ,-45.42,167.72,44.71,68,95,5.37
560,Souillac,MU,-20.52,57.52,77.0,94,75,2.01
561,Bambous Virieux,MU,-20.34,57.76,77.0,94,75,4.05
562,Mpongwe,ZM,-13.51,28.16,74.43,40,20,3.24
563,Rome,US,43.21,-75.46,54.32,35,1,3.24
564,Ambon City,ID,-3.7,128.18,83.05,78,71,11.18
565,Mount Gambier,AU,-37.83,140.77,59.0,93,100,11.41
566,Samarai,PG,-10.62,150.67,79.86,83,63,3.85
567,Mitsamiouli,KM,-11.38,43.28,83.26,76,7,10.96
568,Port Keats,AU,-14.25,129.55,82.94,63,0,2.37
569,Norsup,VU,-16.07,167.38,78.8,83,75,3.36
570,Ambilobe,MG,-13.2,49.05,78.48,85,99,1.68
571,Mwingi,KE,-0.93,38.06,70.93,67,100,3.51
572,Grand Gaube,MU,-20.01,57.66,77.0,87,1,3.0
573,Sesheke,ZM,-17.48,24.3,80.6,28,81,6.93
574,Tuatapere,NZ,-46.13,167.68,48.0,74,64,5.99
575,Hithadhoo,MV,-0.6,73.08,84.76,70,77,6.49
576,Henties Bay,NA,-22.12,14.28,59.0,92,12,1.99
577,Westport,US,41.14,-73.36,58.37,62,1,6.93
578,Isangel,VU,-19.55,169.27,71.6,88,90,14.65
579,Saldanha,ZA,-33.01,17.94,73.4,43,0,8.05
580,Bambanglipuro,ID,-7.95,110.28,80.67,80,100,8.3
581,Tsiroanomandidy,MG,-18.77,46.03,69.73,70,15,3.27
582,Margate,GB,51.38,1.39,52.32,72,35,5.01
583,Richards Bay,ZA,-28.78,32.04,73.4,75,72,13.38
584,Madimba,TZ,-10.4,40.33,84.2,74,20,9.17
585,Aitape,PG,-3.14,142.35,79.99,81,33,2.8
586,Nhulunbuy,AU,-12.23,136.77,78.8,78,8,6.93
587,Hervey Bay,AU,-25.3,152.85,64.11,82,0,8.05
588,Sambava,MG,-14.27,50.17,77.74,88,52,6.69
589,Dunedin,NZ,-45.87,170.5,49.44,74,4,1.01
590,Esperance,AU,-33.87,121.9,57.2,87,75,6.93
591,Giyani,ZA,-23.3,30.72,83.66,26,0,5.61
592,Kerema,PG,-7.96,145.78,79.0,87,86,3.87
593,Arandis,NA,-22.42,14.97,59.0,92,2,1.99
594,Mount Isa,AU,-20.73,139.5,75.2,44,0,4.7
595,Moindou,NC,-21.69,165.68,68.0,77,75,6.91
596,Moba,CN,33.23,105.02,44.85,38,97,3.56
597,Broome,US,42.25,-75.83,50.77,55,47,4.0
598,Gawler,AU,-34.6,138.73,60.69,94,100,14.72
599,Karoi,ZW,-16.81,29.69,71.67,36,53,2.8
600,Walvis Bay,NA,-22.96,14.51,60.93,77,30,9.17
601,Port-Gentil,GA,-0.72,8.78,77.0,94,40,3.36
602,Serenje,ZM,-13.23,30.24,69.87,45,15,5.01
603,Yeppoon,AU,-23.13,150.73,68.0,72,12,8.05
604,Arrondissement de Saint-Denis,FR,48.92,2.33,65.84,37,0,9.17
605,Kokopo,PG,-4.35,152.26,79.95,78,56,0.76
606,Tual,ID,-5.67,132.75,83.46,78,66,17.92
607,Camacupa,AO,-12.02,17.48,74.55,39,10,0.85
608,Narrabri,AU,-30.32,149.78,53.19,81,0,3.06
609,Saint-Leu,RE,-21.15,55.28,73.44,83,25,3.36
610,Voh,NC,-20.97,164.7,70.59,77,100,6.24
611,Waingapu,ID,-9.66,120.26,79.92,80,100,12.41
612,George,ZA,-33.96,22.46,62.6,82,20,11.41
613,Nacala,MZ,-14.54,40.67,79.18,79,52,9.04
614,Luganville,VU,-15.53,167.17,78.8,83,75,3.36
615,Waipawa,NZ,-41.41,175.52,56.37,87,1,13.87
616,Beloha,MG,-25.17,45.05,75.2,68,66,5.7
617,Merauke,ID,-8.47,140.33,78.85,85,3,11.27
618,Cilegon,ID,-6.02,106.05,82.15,78,20,2.24
619,Oshakati,NA,-17.78,15.68,87.8,27,18,4.7
620,Port Augusta,AU,-32.5,137.77,63.64,100,90,14.99
621,Bowen,AU,-20.02,148.23,70.57,88,75,6.93
622,Auki,SB,-8.77,160.7,81.43,76,47,3.85
623,Mossamedes,AO,-15.2,12.15,75.2,73,20,17.22
